id,"name",state_id,country_id,latitude,longitude
1,"Bangued",1,174,17.5881847,120.6314948
2,"Boliney",1,174,17.3674569,120.8728615
3,"Bucay",1,174,17.5301886,120.7234992
4,"Bucloc",1,174,17.4437463,120.8422548
5,"Daguioman",1,174,17.4361335,120.9646866
6,"Danglas",1,174,17.7449596,120.6429991
7,"Dolores",1,174,17.6507819,120.7292472
8,"La Paz",1,174,17.6477334,120.6545022
9,"Lacub",1,174,17.6893614,120.9646866
10,"Lagangilang",1,174,17.624061,120.792458
11,"Lagayan",1,174,17.7714339,120.734995
12,"Langiden",1,174,17.6038662,120.5394232
13,"Licuan-Baay",1,174,17.5785363,120.8728615
14,"Luba",1,174,17.3141801,120.6890055
15,"Malibcong",1,174,17.5969743,121.0105733
16,"Manabo",1,174,17.390888,120.734995
17,"Peñarrubia",1,174,17.5419536,120.6545022
18,"Pidigan",1,174,17.5364447,120.5624474
19,"Pilar",1,174,17.3844671,120.5854674
20,"Sallapadan",1,174,17.4925404,120.7619678
21,"San Isidro",1,174,17.4800566,120.6142365
22,"San Juan",1,174,17.6809179,120.7315061
23,"San Quintin",1,174,17.5230804,120.5163949
24,"Tayum",1,174,17.6014831,120.6775054
25,"Tineg",1,174,17.8412338,120.9417368
26,"Tubo",1,174,17.265891,120.8498944
27,"Villaviciosa",1,174,17.3939539,120.6545022
28,"Butuan City",2,174,8.9475377,125.5406234
29,"Buenavista",2,174,8.7859265,125.3685679
30,"Cabadbaran",2,174,9.1221925,125.537603
31,"Carmen",2,174,8.9387242,125.2478112
32,"Jabonga",2,174,9.3293601,125.5529398
33,"Kitcharao",2,174,9.4206582,125.620484
34,"Las Nieves",2,174,8.6651079,125.4562795
35,"Magallanes",2,174,9.0356432,125.5548422
36,"Nasipit",2,174,8.9714897,125.3518224
37,"Remedios T. Romualdez",2,174,9.0607444,125.6642155
38,"Santiago",2,174,9.2416621,125.6314191
39,"Tubay",2,174,9.2036187,125.5548422
40,"Bayugan",3,174,8.7143526,125.7480952
41,"Bunawan",3,174,8.2164674,126.0458437
42,"Esperanza",3,174,8.5655111,125.5220012
43,"La Paz",3,174,8.2611393,125.6095474
44,"Loreto",3,174,8.1140905,125.6095474
45,"Prosperidad",3,174,8.6023686,125.8716137
46,"Rosario",3,174,8.3126164,126.0036149
47,"San Francisco",3,174,8.5089765,125.9696657
48,"San Luis",3,174,8.4176023,125.5220012
49,"Santa Josefa",3,174,7.9811274,126.0240861
50,"Sibagat",3,174,8.9660918,125.7625241
51,"Talacogon",3,174,8.36972,125.8061779
52,"Trento",3,174,8.0525698,126.2196853
53,"Veruela",3,174,8.0307198,125.8934136
54,"Altavas",4,174,11.5189263,122.4580469
55,"Balete",4,174,11.5301897,122.367428
56,"Banga",4,174,11.5755637,122.3220894
57,"Batan",4,174,11.5699736,122.5259596
58,"Buruanga",4,174,11.8259677,121.9131761
59,"Ibajay",4,174,11.7518624,122.1859572
60,"Kalibo",4,174,11.6892241,122.367428
61,"Lezo",4,174,11.6750175,122.3220894
62,"Libacao",4,174,11.4109251,122.2880726
63,"Madalag",4,174,11.4617735,122.1973081
64,"Makato",4,174,11.7006146,122.2767313
65,"Malay",4,174,11.9003045,121.958687
66,"Malinao",4,174,11.6152751,122.2427
67,"Nabas",4,174,11.8517124,122.026918
68,"New Washington",4,174,11.643754,122.4127472
69,"Numancia",4,174,11.7176683,122.3390936
70,"Tangalan",4,174,11.7461613,122.2313539
71,"Legazpi City",5,174,13.1390621,123.7437995
72,"Ligao City",5,174,13.1724166,123.4943968
73,"Tabaco City",5,174,13.3240963,123.645139
74,"Bacacay",5,174,13.2958591,123.8746152
75,"Camalig",5,174,13.1658685,123.6386144
76,"Daraga",5,174,13.1028156,123.6958809
77,"Guinobatan",5,174,13.1541858,123.5504076
78,"Jovellar",5,174,13.0426153,123.5616058
79,"Libon",5,174,13.2606549,123.3710571
80,"Malilipot",5,174,13.299305,123.7182415
81,"Malinao",5,174,13.3810615,123.6399562
82,"Manito",5,174,13.0681235,123.8634544
83,"Oas",5,174,13.1739119,123.4159263
84,"Pio Duran",5,174,13.0473044,123.4607744
85,"Polangui",5,174,13.3209614,123.5056016
86,"Rapu-Rapu",5,174,13.2407755,124.041865
87,"Santo Domingo",5,174,13.2326739,123.7629465
88,"Tiwi",5,174,13.4612024,123.6399562
89,"Anini-y",6,174,10.4515207,121.958687
90,"Barbaza",6,174,11.2231318,122.0541271
91,"Belison",6,174,10.8475866,121.9871217
92,"Bugasong",6,174,11.1016314,122.1405413
93,"Caluya",6,174,12.0684185,121.3908982
94,"Culasi",6,174,11.433122,122.1064668
95,"Hamtic",6,174,10.6518851,122.0155491
96,"Laua-an",6,174,11.1637611,122.1178261
97,"Libertad",6,174,11.7802927,121.958687
98,"Pandan",6,174,11.74214,122.0994209
99,"Patnongon",6,174,10.9230273,122.0610174
100,"San Jose",6,174,10.7489069,121.9412608
101,"San Remigio",6,174,10.9071134,122.1973081
102,"Sebaste",6,174,11.5809775,122.1178261
103,"Sibalom",6,174,10.7650193,122.0610174
104,"Tibiao",6,174,11.2953463,122.0585226
105,"Tobias Fornier",6,174,10.4994417,121.9700618
106,"Valderrama",6,174,11.0652099,122.1973081
107,"Calanasan",7,174,18.2479181,121.03351
108,"Conner",7,174,17.7929294,121.2168466
109,"Flora",7,174,18.1145991,121.422761
110,"Kabugao",7,174,17.9779378,121.1252135
111,"Luna",7,174,18.2995338,121.2168466
112,"Pudtol",7,174,18.1393236,121.2855249
113,"Santa Marcela",7,174,18.291778,121.43419
114,"Baler",8,174,15.733607,121.57125
115,"Casiguran",8,174,16.2277929,122.0633195
116,"Dilasag",8,174,16.4374658,122.151897
117,"Dinalungan",8,174,16.150936,121.8790306
118,"Dingalan",8,174,15.4000077,121.3780165
119,"Dipaculao",8,174,15.984298,121.6331088
120,"Maria Aurora",8,174,15.801574,121.4594947
121,"San Luis",8,174,15.6357233,121.4684703
122,"Isabela City",9,174,6.7029445,121.969
123,"Akbar",9,174,6.6490817,122.2143323
124,"Al-Barka",9,174,6.4701228,122.1973081
125,"Hadji Mohammad Ajul",9,174,6.6197996,122.2994127
126,"Hadji Muhtamad",9,174,6.6804777,121.5826642
127,"Lamitan",9,174,6.661519,122.1064668
128,"Lantawan",9,174,6.6804777,121.5826642
129,"Maluso",9,174,6.5379641,121.8904136
130,"Sumisip",9,174,6.4829046,122.0155491
131,"Tabuan-Lasa",9,174,6.347297,121.9671034
132,"Tipo-Tipo",9,174,6.5371624,122.1632516
133,"Tuburan",9,174,6.6078625,122.2086579
134,"Ungkaya Pukan",9,174,6.5504442,122.1064668
135,"Balanga City",10,174,14.6741293,120.5112907
136,"Abucay",10,174,14.7128091,120.4933624
137,"Bagac",10,174,14.5892275,120.4127161
138,"Dinalupihan",10,174,14.8780629,120.4545801
139,"Hermosa",10,174,14.8269095,120.4242401
140,"Limay",10,174,14.5278776,120.5509358
141,"Mariveles",10,174,14.457977,120.4588059
142,"Morong",10,174,14.7188504,120.3060025
143,"Orani",10,174,14.7933477,120.4760853
144,"Orion",10,174,14.5989058,120.5624474
145,"Pilar",10,174,14.6088458,120.4933624
146,"Samal",10,174,14.7718818,120.5163949
147,"Basco",11,174,20.4634375,122.004179
148,"Itbayat",11,174,20.7838749,121.8383269
149,"Ivana",11,174,20.3780589,121.9302449
150,"Mahatao",11,174,20.4051561,121.9529992
151,"Sabtang",11,174,20.3054399,121.8448745
152,"Uyugan",11,174,20.3734287,121.9529992
153,"Batangas City",12,174,13.7564651,121.0583076
154,"Lipa City",12,174,13.941876,121.1644198
155,"Tanauan City",12,174,14.0835075,121.1473558
156,"Agoncillo",12,174,13.9879515,120.9302603
157,"Alitagtag",12,174,13.8721364,121.0220422
158,"Balayan",12,174,13.9375597,120.7005044
159,"Balete",12,174,14.0091974,121.1080244
160,"Bauan",12,174,13.7962681,120.9761599
161,"Calaca",12,174,13.9508989,120.8269231
162,"Calatagan",12,174,13.8645656,120.6314948
163,"Cuenca",12,174,13.9041159,121.0507098
164,"Ibaan",12,174,13.822048,121.1340569
165,"Laurel",12,174,14.0530249,120.907304
166,"Lemery",12,174,13.9531777,120.8843434
167,"Lian",12,174,13.9852356,120.6545022
168,"Lobo",12,174,13.6750074,121.2401455
169,"Mabini",12,174,13.7235514,120.907304
170,"Malvar",12,174,14.0378883,121.1595842
171,"Mataas na Kahoy",12,174,13.9799515,121.0965637
172,"Nasugbu",12,174,14.0940383,120.6890055
173,"Padre Garcia",12,174,13.8766845,121.2454674
174,"Rosario",12,174,13.8162016,121.2740813
175,"San Jose",12,174,13.8830561,121.0908329
176,"San Juan",12,174,13.7504439,121.3770336
177,"San Luis",12,174,13.8406018,120.9532123
178,"San Nicolas",12,174,13.994739,120.9948482
179,"San Pascual",12,174,13.8104423,121.0220422
180,"Santa Teresita",12,174,13.8742115,120.9704234
181,"Santo Tomas",12,174,14.0900763,121.1744922
182,"Taal",12,174,13.8893119,120.9359987
183,"Talisay",12,174,14.1130394,121.0092544
184,"Taysan",12,174,13.7610819,121.2282958
185,"Tingloy",12,174,13.6605663,120.8716962
186,"Tuy",12,174,14.0220752,120.7283538
187,"Baguio City",13,174,16.4023332,120.5960071
188,"Atok",13,174,16.597449,120.6890055
189,"Bakun",13,174,16.8079575,120.6890055
190,"Bokod",13,174,16.4564063,120.7809676
191,"Buguias",13,174,16.7491571,120.8368171
192,"Itogon",13,174,16.3451812,120.6890055
193,"Kabayan",13,174,16.6170249,120.8269231
194,"Kapangan",13,174,16.6123793,120.5969758
195,"Kibungan",13,174,16.6816218,120.6890055
196,"La Trinidad",13,174,16.4774284,120.5854674
197,"Mankayan",13,174,16.8770346,120.7809676
198,"Sablan",13,174,16.4885206,120.5163949
199,"Tuba",13,174,16.3005173,120.5739579
200,"Tublay",13,174,16.5120921,120.6314948
201,"Almeria",14,174,11.6395872,124.4087307
202,"Biliran",14,174,11.5106303,124.4974405
203,"Cabucgayan",14,174,11.5016901,124.5639142
204,"Caibiran",14,174,11.560095,124.5639142
205,"Culaba",14,174,11.6440591,124.519604
206,"Kawayan",14,174,11.6786399,124.4087307
207,"Maripipi",14,174,11.7884869,124.3199316
208,"Naval",14,174,11.5628579,124.3965285
209,"Tagbilaran City",15,174,9.672948,123.8730022
210,"Alburquerque",15,174,9.6320989,123.9537069
211,"Alicia",15,174,9.8798859,124.4309165
212,"Anda",15,174,9.7692424,124.5639142
213,"Antequera",15,174,9.7740668,123.920219
214,"Baclayon",15,174,9.6323687,123.919245
215,"Balilihan",15,174,9.7670437,123.997295
216,"Batuan",15,174,9.800987,124.1198102
217,"Bien Unido",15,174,10.1210626,124.37325
218,"Bilar",15,174,9.7187682,124.0864133
219,"Buenavista",15,174,10.053061,124.1754442
220,"Calape",15,174,9.8862984,123.8746152
221,"Candijay",15,174,9.8257967,124.4863567
222,"Carmen",15,174,9.8398971,124.1976882
223,"Catigbian",15,174,9.8385449,124.041865
224,"Clarin",15,174,9.9567237,124.0577994
225,"Corella",15,174,9.687231,123.9415518
226,"Cortes",15,174,9.7113414,123.8969328
227,"Dagohoy",15,174,9.8996343,124.2844697
228,"Danao",15,174,9.9474185,124.2202732
229,"Dauis",15,174,9.6074028,123.8233901
230,"Dimiao",15,174,9.6647867,124.1420679
231,"Duero",15,174,9.7324527,124.3865392
232,"Garcia Hernandez",15,174,9.6688372,124.2754988
233,"Getafe",15,174,10.1298013,124.1754442
234,"Guindulman",15,174,9.7794424,124.4752715
235,"Inabanga",15,174,10.0314085,124.0674291
236,"Jagna",15,174,9.6504905,124.3653473
237,"Lila",15,174,9.6125422,124.097547
238,"Loay",15,174,9.5995837,124.0139789
239,"Loboc",15,174,9.6581656,124.0307246
240,"Loon",15,174,9.7986144,123.7936814
241,"Mabini",15,174,9.8969072,124.5306837
242,"Maribojoc",15,174,9.7546244,123.8522923
243,"Panglao",15,174,9.5986918,123.7985544
244,"Pilar",15,174,9.8411457,124.3532417
245,"President Carlos P. Garcia",15,174,9.6604791,123.8592044
246,"Sagbayan",15,174,9.899196,124.097547
247,"San Isidro",15,174,9.8569889,123.9638531
248,"San Miguel",15,174,9.9991848,124.3088255
249,"Sevilla",15,174,9.6963683,124.0307246
250,"Sierra Bullones",15,174,9.7699125,124.3088255
251,"Sikatuna",15,174,9.6822494,123.986149
252,"Talibon",15,174,10.1576954,124.2643871
253,"Trinidad",15,174,10.0622792,124.3421397
254,"Tubigon",15,174,9.9144971,123.9638531
255,"Ubay",15,174,9.9932029,124.4483683
256,"Valencia",15,174,9.6113069,124.211808
257,"Malaybalay City",16,174,8.1306038,125.1276536
258,"Valencia City",16,174,7.8631903,125.1708741
259,"Baungon",16,174,8.2633635,124.6635297
260,"Cabanglasan",16,174,8.0872584,125.3246769
261,"Damulog",16,174,7.4602033,124.9727096
262,"Dangcagan",16,174,7.6025458,125.0167866
263,"Don Carlos",16,174,7.6880909,124.8844867
264,"Impasug-ong",16,174,8.3885423,125.0828588
265,"Kadingilan",16,174,7.5047399,124.8844867
266,"Kalilangan",16,174,7.7739339,124.7519807
267,"Kibawe",16,174,7.4887828,125.0608405
268,"Kitaotao",16,174,7.5944434,125.1048713
269,"Lantapan",16,174,8.0479665,124.9727096
270,"Libona",16,174,8.3806797,124.7041462
271,"Malitbog",16,174,8.5297806,124.9727096
272,"Manolo Fortich",16,174,8.3900193,124.8844867
273,"Maramag",16,174,7.7900995,124.9727096
274,"Pangantucan",16,174,7.8393401,124.8403408
275,"Quezon",16,174,7.7164542,125.1708741
276,"San Fernando",16,174,7.8463694,125.3466253
277,"Sumilao",16,174,8.345058,124.9767237
278,"Talakag",16,174,8.0197815,124.7899184
279,"Malolos City",17,174,14.8527393,120.8160376
280,"Meycauayan City",17,174,14.7498856,120.9739288
281,"San Jose del Monte City",17,174,14.8205675,121.1022942
282,"Angat",17,174,14.9380065,121.0208845
283,"Balagtas",17,174,14.8227794,120.9130435
284,"Baliuag",17,174,14.9672031,120.8843434
285,"Bocaue",17,174,14.8056671,120.9357876
286,"Bulacan",17,174,14.7942735,120.8799008
287,"Bustos",17,174,14.9379359,120.927572
288,"Calumpit",17,174,14.9011437,120.769476
289,"Doña Remedios Trinidad",17,174,15.1142696,121.2168466
290,"Guiguinto",17,174,14.8370235,120.8855897
291,"Hagonoy",17,174,14.791933,120.734995
292,"Marilao",17,174,14.7728024,120.9704234
293,"Norzagaray",17,174,14.8744717,121.1446143
294,"Obando",17,174,14.7262727,120.9253285
295,"Pandi",17,174,14.8756999,120.9592956
296,"Paombong",17,174,14.8102948,120.7867129
297,"Plaridel",17,174,14.8814829,120.8671201
298,"Pulilan",17,174,14.9324868,120.8384093
299,"San Ildefonso",17,174,15.0417552,121.0105733
300,"San Miguel",17,174,15.166425,121.0105733
301,"San Rafael",17,174,14.998451,120.9532123
302,"Santa Maria",17,174,14.8463073,120.9991032
303,"Tuguegarao City",18,174,17.6131813,121.7270206
304,"Abulug",18,174,18.3972783,121.43419
305,"Alcala",18,174,17.9049718,121.6511258
306,"Allacapan",18,174,18.2161729,121.5598345
307,"Amulung",18,174,17.8464893,121.7423434
308,"Aparri",18,174,18.3550839,121.6420059
309,"Baggao",18,174,17.9142351,121.947311
310,"Ballesteros",18,174,18.3509887,121.5141615
311,"Buguey",18,174,18.2585476,121.7879244
312,"Calayan",18,174,19.2618857,121.4770988
313,"Camalaniugan",18,174,18.2753372,121.6967438
314,"Claveria",18,174,18.6014185,121.0911646
315,"Enrile",18,174,17.5688589,121.6511258
316,"Gattaran",18,174,18.0736485,121.8790306
317,"Gonzaga",18,174,18.2414828,122.1064668
318,"Iguig",18,174,17.7499497,121.7537404
319,"Lal-lo",18,174,18.1576715,121.8790306
320,"Lasam",18,174,18.047691,121.5598345
321,"Pamplona",18,174,18.4266461,121.3312882
322,"Peñablanca",18,174,17.6626811,121.947311
323,"Piat",18,174,17.7531544,121.5598345
324,"Rizal",18,174,17.8277893,121.3770336
325,"Sanchez-Mira",18,174,18.5362751,121.193945
326,"Santa Ana",18,174,18.4816082,122.1556749
327,"Santa Praxedes",18,174,18.5187555,120.9991032
328,"Santa Teresita",18,174,18.2459143,121.9131761
329,"Santo Niño",18,174,17.9126693,121.4913182
330,"Solana",18,174,17.6528363,121.6511258
331,"Tuao",18,174,17.699209,121.5038763
332,"Basud",19,174,14.006633,122.9663018
333,"Capalonga",19,174,14.2855935,122.4693688
334,"Daet",19,174,14.099578,122.9550349
335,"Jose Panganiban",19,174,14.2833889,122.6979815
336,"Labo",19,174,14.1527822,122.6729515
337,"Mercedes",19,174,14.0215425,123.0676469
338,"Paracale",19,174,14.2372141,122.7858791
339,"San Lorenzo Ruiz",19,174,14.116667,122.866667
340,"San Vicente",19,174,14.1,122.866667
341,"Santa Elena",19,174,14.217726,122.3787597
342,"Talisay",19,174,14.1478159,122.9381321
343,"Vinzons",19,174,14.2114459,122.8874067
344,"Iriga City",20,174,13.4205369,123.4180473
345,"Naga City",20,174,13.6217753,123.1948238
346,"Baao",20,174,13.5015601,123.3710571
347,"Balatan",20,174,13.3490803,123.2475594
348,"Bato",20,174,13.3190722,123.3149413
349,"Bombon",20,174,13.6819875,123.2082318
350,"Buhi",20,174,13.4412707,123.5056016
351,"Bula",20,174,13.4689356,123.277158
352,"Cabusao",20,174,13.7350513,123.0901539
353,"Calabanga",20,174,13.7163289,123.2812562
354,"Camaligan",20,174,13.6282537,123.1632665
355,"Canaman",20,174,13.6475835,123.1351527
356,"Caramoan",20,174,13.8076519,123.8500045
357,"Del Gallego",20,174,13.9258748,122.695547
358,"Gainza",20,174,13.616667,123.15
359,"Garchitorena",20,174,13.8628124,123.6399562
360,"Goa",20,174,13.7361891,123.4159263
361,"Lagonoy",20,174,13.8668769,123.4831906
362,"Libmanan",20,174,13.6828973,122.9663018
363,"Lupi",20,174,13.8582177,122.8761309
364,"Magarao",20,174,13.6685793,123.1632665
365,"Milaor",20,174,13.5963401,123.1745097
366,"Minalabac",20,174,13.5283608,123.1913722
367,"Nabua",20,174,13.3960698,123.3373916
368,"Ocampo",20,174,13.5819842,123.3710571
369,"Pamplona",20,174,13.5842564,123.0594772
370,"Pasacao",20,174,13.552319,123.0314951
371,"Pili",20,174,13.595469,123.2812562
372,"Presentacion",20,174,13.7367365,123.7405967
373,"Ragay",20,174,13.8312329,122.7858791
374,"Sagñay",20,174,13.5617176,123.5056016
375,"San Fernando",20,174,13.5299842,123.1126559
376,"San Jose",20,174,13.6872362,123.5392081
377,"Sipocot",20,174,13.7628395,122.9621976
378,"Siruma",20,174,14.027433,123.2924859
379,"Tigaon",20,174,13.61677,123.4879403
380,"Tinambac",20,174,13.9042798,123.3710571
381,"Catarman",21,174,9.1698214,124.674591
382,"Guinsiliban",21,174,9.1160445,124.779603
383,"Mahinog",21,174,9.1601852,124.7630307
384,"Mambajao",21,174,9.2321675,124.7077665
385,"Sagay",21,174,9.1249484,124.7409293
386,"Roxas City",22,174,11.5528816,122.740723
387,"Cuartero",22,174,11.3155974,122.740723
388,"Dao",22,174,11.3889504,122.7068429
389,"Dumalag",22,174,11.3210606,122.6164409
390,"Dumarao",22,174,11.2421989,122.695547
391,"Ivisan",22,174,11.5302869,122.6842498
392,"Jamindan",22,174,11.3997976,122.3787597
393,"Ma-ayon",22,174,11.3438775,122.831015
394,"Mambusao",22,174,11.4425704,122.593828
395,"Panay",22,174,11.5414755,122.831015
396,"Panitan",22,174,11.4595785,122.7745919
397,"Pilar",22,174,11.4791255,123.0113568
398,"Pontevedra",22,174,11.417207,122.8761309
399,"President Roxas",22,174,11.4058843,122.9663018
400,"Sapi-an",22,174,11.5019953,122.593828
401,"Sigma",22,174,11.4397974,122.695547
402,"Tapaz",22,174,11.2979492,122.4014193
403,"Bagamanoc",23,174,13.94037,124.2887451
404,"Baras",23,174,13.6996667,124.3643423
405,"Bato",23,174,13.6068651,124.3199316
406,"Caramoran",23,174,13.819335,124.1754442
407,"Gigmoto",23,174,13.7912671,124.3532417
408,"Pandan",23,174,14.0382044,124.1623009
409,"Panganiban",23,174,13.8935587,124.2754988
410,"San Andres",23,174,13.6113216,124.0768102
411,"San Miguel",23,174,13.6854096,124.2643871
412,"Viga",23,174,13.8465045,124.3199316
413,"Virac",23,174,13.5848627,124.2065844
414,"Cavite City",24,174,14.4791297,120.8969634
415,"Dasmariñas City",24,174,14.2990183,120.9589699
416,"Tagaytay City",24,174,14.115286,120.9621165
417,"Trece Martires City",24,174,14.2866478,120.8613785
418,"Alfonso",24,174,14.1214038,120.8613785
419,"Amadeo",24,174,14.1645186,120.9251699
420,"Bacoor",24,174,14.4129931,120.9736786
421,"Carmona",24,174,14.2972796,121.0392436
422,"General Mariano Alvarez",24,174,14.3066935,121.01373
423,"General Emilio Aguinaldo",24,174,14.1931169,120.792458
424,"General Trias",24,174,14.3214094,120.907304
425,"Imus",24,174,14.4064221,120.9405057
426,"Indang",24,174,14.1920384,120.8728615
427,"Kawit",24,174,14.441139,120.9015642
428,"Magallanes",24,174,14.158284,120.7464897
429,"Maragondon",24,174,14.2529507,120.734995
430,"Mendez",24,174,14.1311947,120.9015642
431,"Naic",24,174,14.2964865,120.792458
432,"Noveleta",24,174,14.4278929,120.8801182
433,"Rosario",24,174,14.4129026,120.8642493
434,"Silang",24,174,14.2183093,120.9728536
435,"Tanza",24,174,14.3519672,120.8384093
436,"Ternate",24,174,14.2714485,120.6775054
437,"Bogo City",25,174,11.0128292,123.986149
438,"Cebu City",25,174,10.3156992,123.8854366
439,"Carcar City",25,174,10.1151105,123.6399562
440,"Danao City",25,174,10.5417498,123.9527031
441,"Lapu-Lapu City",25,174,10.2661822,123.997295
442,"Mandaue City",25,174,10.3402623,123.9415518
443,"Naga City",25,174,10.2084984,123.7572942
444,"Talisay City",25,174,10.2569872,123.8299639
445,"Toledo City",25,174,10.3870103,123.6502788
446,"Alcantara",25,174,9.9673972,123.4551696
447,"Alcoy",25,174,9.7117325,123.4607744
448,"Alegria",25,174,9.7600548,123.3710571
449,"Aloguinsan",25,174,10.1917127,123.5616058
450,"Argao",25,174,9.9325808,123.5504076
451,"Asturias",25,174,10.5966862,123.8187977
452,"Badian",25,174,9.8320892,123.4159263
453,"Balamban",25,174,10.4858484,123.7741195
454,"Bantayan",25,174,11.1843073,123.7462457
455,"Barili",25,174,10.1219023,123.5393105
456,"Boljoon",25,174,9.6457398,123.4495644
457,"Borbon",25,174,10.8462735,123.997295
458,"Carmen",25,174,10.5937044,124.0186256
459,"Catmon",25,174,10.7208936,124.0121178
460,"Compostela",25,174,10.4659,123.9805756
461,"Consolacion",25,174,10.4367842,123.9415518
462,"Cordoba",25,174,10.2438638,123.9415518
463,"Daanbantayan",25,174,11.2464955,124.0173086
464,"Dalaguete",25,174,9.783662,123.5056016
465,"Dumanjug",25,174,10.0281876,123.4719832
466,"Ginatilan",25,174,9.5786947,123.3598366
467,"Liloan",25,174,10.412129,123.986149
468,"Madridejos",25,174,11.2641918,123.7350084
469,"Malabuyoc",25,174,9.6446914,123.3710571
470,"Medellin",25,174,11.1491043,123.986149
471,"Minglanilla",25,174,10.2433023,123.7889922
472,"Moalboal",25,174,9.9556609,123.4007598
473,"Oslob",25,174,9.5630395,123.4159263
474,"Pilar",25,174,10.7517764,124.519604
475,"Pinamungahan",25,174,10.2638281,123.6063855
476,"Poro",25,174,10.7017335,124.4162072
477,"Ronda",25,174,9.9921376,123.4495644
478,"Samboan",25,174,9.5043588,123.3373916
479,"San Fernando",25,174,10.1871162,123.6846987
480,"San Francisco",25,174,10.6471856,124.3532417
481,"San Remigio",25,174,10.960102,123.9415518
482,"Santa Fe",25,174,11.1691325,123.7908763
483,"Santander",25,174,9.446844,123.3373916
484,"Sibonga",25,174,10.0431063,123.5951925
485,"Sogod",25,174,10.7631166,123.9638531
486,"Tabogon",25,174,10.9239469,123.997295
487,"Tabuelan",25,174,10.8573793,123.9080896
488,"Tuburan",25,174,10.7075816,123.8634544
489,"Tudela",25,174,10.6609238,124.4752715
490,"Compostela",26,174,7.6659683,126.084695
491,"Laak",26,174,7.8771191,125.784354
492,"Mabini",26,174,7.2821293,125.8574009
493,"Maco",26,174,7.359251,125.8579857
494,"Maragusan",26,174,7.3521887,126.1545404
495,"Mawab",26,174,7.4968622,125.958777
496,"Monkayo",26,174,7.8514488,126.0458437
497,"Montevista",26,174,7.7305458,125.9805528
498,"Nabunturan",26,174,7.5853685,125.9805528
499,"New Bataan",26,174,7.554702,126.1403526
500,"Pantukan",26,174,7.2552217,126.1562026
501,"Kidapawan City",27,174,7.010607,125.0911341
502,"Alamada",27,174,7.552935,124.5528387
503,"Aleosan",27,174,7.1889378,124.6303372
504,"Antipas",27,174,7.2699839,125.0608405
505,"Arakan",27,174,7.3537668,125.1474451
506,"Banisilan",27,174,7.537013,124.7298765
507,"Carmen",27,174,7.3826135,124.8182593
508,"Kabacan",27,174,7.1071923,124.8403408
509,"Libungan",27,174,7.3163743,124.5306837
510,"M'lang",27,174,6.938217,124.906551
511,"Magpet",27,174,7.1331999,125.1708741
512,"Makilala",27,174,6.9234317,125.0828588
513,"Matalam",27,174,7.2087534,124.9286096
514,"Midsayap",27,174,7.133551,124.5306837
515,"Pigkawayan",27,174,7.2792199,124.4309165
516,"Pikit",27,174,7.0531435,124.6192702
517,"President Roxas",27,174,7.3832142,125.0167866
518,"Tulunan",27,174,6.786219,124.994751
519,"Panabo City",28,174,7.3087068,125.6841178
520,"Island Garden City of Samal",28,174,7.103312,125.7188463
521,"Tagum City",28,174,7.448212,125.8094242
522,"Asuncion",28,174,7.6060257,125.7625241
523,"Braulio E. Dujali",28,174,7.4568198,125.7079231
524,"Carmen",28,174,7.3682098,125.6860723
525,"Kapalong",28,174,7.6194971,125.6278353
526,"New Corella",28,174,7.5977693,125.8498078
527,"San Isidro",28,174,7.7599905,125.6751446
528,"Santo Tomas",28,174,7.5092887,125.6314191
529,"Talaingod",28,174,7.6288031,125.5713274
530,"Davao City",29,174,7.190708,125.455341
531,"Digos City",29,174,6.7575087,125.352398
532,"Bansalan",29,174,6.7908497,125.2055655
533,"Don Marcelino",29,174,6.145602,125.6314191
534,"Hagonoy",29,174,6.6970077,125.3137005
535,"Jose Abad Santos",29,174,5.8340662,125.5438967
536,"Kiblawan",29,174,6.6323309,125.2258365
537,"Magsaysay",29,174,6.7915557,125.148879
538,"Malalag",29,174,6.5489443,125.2587964
539,"Malita",29,174,6.3843023,125.5815927
540,"Matanao",29,174,6.7525856,125.2381713
541,"Padada",29,174,6.6439747,125.3472743
542,"Santa Cruz",29,174,6.8813156,125.3685679
543,"Santa Maria",29,174,6.5152085,125.4562795
544,"Sarangani",29,174,5.4036809,125.3789377
545,"Sulop",29,174,6.6252055,125.3137005
546,"Mati City",30,174,6.9437633,126.2467484
547,"Baganga",30,174,7.6329096,126.536683
548,"Banaybanay",30,174,7.1608407,126.1601269
549,"Boston",30,174,7.873546,126.3414949
550,"Caraga",30,174,7.3146285,126.5424418
551,"Cateel",30,174,7.7649102,126.3714756
552,"Governor Generoso",30,174,6.5491487,126.1328132
553,"Lupon",30,174,7.1060001,126.1766432
554,"Manay",30,174,7.2163459,126.4580775
555,"San Isidro",30,174,6.7823523,126.11108
556,"Tarragona",30,174,7.0427766,126.4492213
557,"Arteche",31,174,12.2873347,125.4124355
558,"Balangiga",31,174,11.2092175,125.3685679
559,"Balangkayan",31,174,11.4469882,125.4911266
560,"Borongan",31,174,11.6079912,125.4328501
561,"Can-avid",31,174,11.9888576,125.3246769
562,"Dolores",31,174,12.1055187,125.3246769
563,"General MacArthur",31,174,11.251902,125.5392241
564,"Giporlos",31,174,11.1145649,125.5000999
565,"Guiuan",31,174,11.035248,125.7245023
566,"Hernani",31,174,11.3220587,125.5986093
567,"Jipapad",31,174,12.2806586,125.1928634
568,"Lawaan",31,174,11.1825735,125.2807624
569,"Llorente",31,174,11.4111146,125.5404203
570,"Maslog",31,174,12.1246408,125.1928634
571,"Maydolong",31,174,11.4465154,125.3246769
572,"Mercedes",31,174,11.096026,125.7079231
573,"Oras",31,174,12.170534,125.4124355
574,"Quinapondan",31,174,11.1913841,125.5000999
575,"Salcedo",31,174,11.1735201,125.6314191
576,"San Julian",31,174,11.7430983,125.4108059
577,"San Policarpo",31,174,12.2046953,125.4781649
578,"Sulat",31,174,11.8210543,125.4124355
579,"Taft",31,174,11.9030929,125.4188331
580,"Buenavista",32,174,10.6967157,122.650351
581,"Jordan",32,174,10.6152928,122.5792316
582,"Nueva Valencia",32,174,10.4329226,122.5598994
583,"San Lorenzo",32,174,10.6045773,122.6842498
584,"Sibunag",32,174,10.5008371,122.650351
585,"Aguinaldo",33,174,16.952911,121.3312882
586,"Alfonso Lista",33,174,16.988521,121.4913182
587,"Asipulo",33,174,16.7536572,121.0398298
588,"Banaue",33,174,16.9496263,121.1022942
589,"Hingyon",33,174,16.8655953,121.1022942
590,"Hungduan",33,174,16.8389028,121.0105733
591,"Kiangan",33,174,16.7712337,121.0986722
592,"Lagawe",33,174,16.8082549,121.193945
593,"Lamut",33,174,16.6824142,121.193945
594,"Mayoyao",33,174,16.9513131,121.2168466
595,"Tinoc",33,174,16.7034987,120.9748491
596,"Batac City",34,174,18.0460318,120.5940777
597,"Laoag City",34,174,18.1960128,120.5926679
598,"Adams",34,174,18.4590814,120.9187827
599,"Bacarra",34,174,18.2703871,120.6084832
600,"Badoc",34,174,17.9084723,120.4933624
601,"Bangui",34,174,18.5127343,120.7349584
602,"Banna",34,174,17.9567926,120.6429991
603,"Burgos",34,174,18.4659943,120.6429991
604,"Carasi",34,174,18.2130413,120.8728615
605,"Currimao",34,174,18.0029484,120.510106
606,"Dingras",34,174,18.0804954,120.7234992
607,"Dumalneg",34,174,18.4755816,120.8269231
608,"Marcos",34,174,18.0209461,120.7005044
609,"Nueva Era",34,174,17.9407858,120.734995
610,"Pagudpud",34,174,18.5874677,120.8220827
611,"Paoay",34,174,18.0742373,120.5163949
612,"Pasuquin",34,174,18.3385923,120.6429991
613,"Piddig",34,174,18.1869397,120.7809676
614,"Pinili",34,174,17.9429435,120.5394232
615,"San Nicolas",34,174,18.1470823,120.5854674
616,"Sarrat",34,174,18.1137855,120.6545022
617,"Solsona",34,174,18.102185,120.7809676
618,"Vintar",34,174,18.3141291,120.7809676
619,"Candon City",35,174,17.1874035,120.4467176
620,"Vigan City",35,174,17.5704898,120.3873299
621,"Alilem",35,174,16.9108142,120.5722244
622,"Banayoyo",35,174,17.2350729,120.4991209
623,"Bantay",35,174,17.5983228,120.447285
624,"Burgos",35,174,17.3114833,120.5163949
625,"Cabugao",35,174,17.791812,120.4540193
626,"Caoayan",35,174,17.5382154,120.3954282
627,"Cervantes",35,174,16.9765445,120.6890055
628,"Galimuyod",35,174,17.1889596,120.5221524
629,"Gregorio Del Pilar",35,174,17.1481741,120.6084832
630,"Lidlidda",35,174,17.2653418,120.5394232
631,"Magsingal",35,174,17.6830987,120.447285
632,"Nagbukel",35,174,17.4345326,120.5394232
633,"Narvacan",35,174,17.463462,120.4933624
634,"Quirino",35,174,17.103087,120.6890055
635,"Salcedo",35,174,17.1347188,120.5624474
636,"San Emilio",35,174,17.2451452,120.5969758
637,"San Esteban",35,174,17.3273706,120.4530456
638,"San Ildefonso",35,174,17.623,120.3954282
639,"San Juan",35,174,17.7427698,120.4703258
640,"San Vicente",35,174,17.6182471,120.3608455
641,"Santa",35,174,17.5135816,120.447285
642,"Santa Catalina",35,174,17.5864413,120.3608455
643,"Santa Cruz",35,174,17.061675,120.4933624
644,"Santa Lucia",35,174,17.1288754,120.4703258
645,"Santa Maria",35,174,17.3788066,120.4933624
646,"Santiago",35,174,17.2807261,120.447285
647,"Santo Domingo",35,174,17.6446171,120.4242401
648,"Sigay",35,174,17.03398,120.5969758
649,"Sinait",35,174,17.8534666,120.5048792
650,"Sugpon",35,174,16.7808997,120.5969758
651,"Suyo",35,174,16.9658223,120.5624474
652,"Tagudin",35,174,16.9387501,120.4703258
653,"Iloilo City",36,174,10.7201501,122.5621063
654,"Passi City",36,174,11.1687967,122.650351
655,"Ajuy",36,174,11.1246161,123.0113568
656,"Alimodian",36,174,10.8773088,122.367428
657,"Anilao",36,174,11.0002604,122.740723
658,"Badiangan",36,174,10.9964817,122.5259596
659,"Balasan",36,174,11.4592707,123.0901539
660,"Banate",36,174,11.000592,122.8155554
661,"Barotac Nuevo",36,174,10.9216153,122.740723
662,"Barotac Viejo",36,174,11.0625316,122.8761309
663,"Batad",36,174,11.4169972,123.1126559
664,"Bingawan",36,174,11.2052871,122.593828
665,"Cabatuan",36,174,10.9091869,122.5146439
666,"Calinog",36,174,11.1457896,122.5146439
667,"Carles",36,174,11.5687532,123.2363246
668,"Concepcion",36,174,11.2147313,123.1044322
669,"Dingle",36,174,11.0111309,122.650351
670,"Dueñas",36,174,11.0671826,122.593828
671,"Dumangas",36,174,10.8484102,122.695547
672,"Estancia",36,174,11.4619823,123.1463992
673,"Guimbal",36,174,10.6686639,122.2994127
674,"Igbaras",36,174,10.7440839,122.2427
675,"Janiuay",36,174,10.9987667,122.424074
676,"Lambunao",36,174,11.077708,122.424074
677,"Leganes",36,174,10.7916725,122.593828
678,"Lemery",36,174,11.214412,122.9212265
679,"Leon",36,174,10.8208599,122.3447611
680,"Maasin",36,174,10.8914767,122.4333105
681,"Miagao",36,174,10.6705468,122.1973081
682,"Mina",36,174,10.9516879,122.5712101
683,"New Lucena",36,174,10.8729712,122.5712101
684,"Oton",36,174,10.7240176,122.4562615
685,"Pavia",36,174,10.7603368,122.5259596
686,"Pototan",36,174,10.9239245,122.6390489
687,"San Dionisio",36,174,11.3101048,123.1014056
688,"San Enrique",36,174,11.1098942,122.7294309
689,"San Joaquin",36,174,10.5887998,122.1396745
690,"San Miguel",36,174,10.7823601,122.463708
691,"San Rafael",36,174,10.7076451,122.5499921
692,"Santa Barbara",36,174,10.8166467,122.5485873
693,"Sara",36,174,11.2932407,123.000095
694,"Tigbauan",36,174,10.7283347,122.3787597
695,"Tubungan",36,174,10.7893861,122.2767313
696,"Zarraga",36,174,10.8283042,122.6164409
697,"Cauayan City",37,174,16.9166244,121.7879244
698,"Santiago City",37,174,16.7149832,121.5537152
699,"Alicia",37,174,16.806905,121.6967438
700,"Angadanan",37,174,16.791298,121.7879244
701,"Aurora",37,174,16.9774485,121.6169002
702,"Benito Soliven",37,174,16.9347472,121.9245556
703,"Burgos",37,174,17.0414652,121.7309452
704,"Cabagan",37,174,17.3607797,121.8790306
705,"Cabatuan",37,174,16.9277583,121.662532
706,"Cordon",37,174,16.6783497,121.4684703
707,"Delfin Albano",37,174,17.2592492,121.7423434
708,"Dinapigue",37,174,16.6959631,122.2200065
709,"Divilacan",37,174,17.2704978,122.151897
710,"Echague",37,174,16.6701364,121.7171058
711,"Gamu",37,174,17.0838631,121.7879244
712,"Ilagan",37,174,17.1263233,122.0101024
713,"Jones",37,174,16.5826218,121.7879244
714,"Luna",37,174,16.9787186,121.7309452
715,"Maconacon",37,174,17.362137,122.1064668
716,"Mallig",37,174,17.1993375,121.6054893
717,"Naguilian",37,174,16.9968391,121.8676464
718,"Palanan",37,174,16.9969158,122.4014193
719,"Quezon",37,174,17.3251266,121.6054893
720,"Quirino",37,174,17.1755008,121.7423434
721,"Ramon",37,174,16.8046953,121.5255815
722,"Reina Mercedes",37,174,17.0087017,121.7993168
723,"Roxas",37,174,17.1030766,121.6169002
724,"San Agustin",37,174,16.4915291,121.8334868
725,"San Guillermo",37,174,16.7183078,121.9700618
726,"San Isidro",37,174,16.7473584,121.6169002
727,"San Manuel",37,174,17.0193149,121.6169002
728,"San Mariano",37,174,16.8782786,122.1291843
729,"San Mateo",37,174,16.8767261,121.5940773
730,"San Pablo",37,174,17.4615083,121.7943475
731,"Santa Maria",37,174,17.4768522,121.6967438
732,"Santo Tomas",37,174,17.3555172,121.7309452
733,"Tumauini",37,174,17.2770781,121.8790306
734,"Tabuk",38,174,17.4117354,121.4384498
735,"Balbalan",38,174,17.5309531,121.1481284
736,"Lubuagan",38,174,17.3018126,121.0105733
737,"Pasil",38,174,17.4124793,121.1022942
738,"Pinukpuk",38,174,17.6082869,121.3084088
739,"Rizal",38,174,17.4929726,121.6054893
740,"Tanudan",38,174,17.2625583,121.2397438
741,"Tinglayan",38,174,17.2440386,121.1022942
742,"San Fernando City",39,174,16.6073769,120.3666099
743,"Agoo",39,174,16.3247042,120.3550808
744,"Aringay",39,174,16.388791,120.3884732
745,"Bacnotan",39,174,16.7339713,120.3666099
746,"Bagulin",39,174,16.5975302,120.4933624
747,"Balaoan",39,174,16.8022485,120.4011911
748,"Bangar",39,174,16.8829454,120.4242401
749,"Bauang",39,174,16.5143324,120.3550808
750,"Burgos",39,174,16.5380324,120.4703258
751,"Caba",39,174,16.4474302,120.378138
752,"Luna",39,174,16.8308486,120.3550808
753,"Naguilian",39,174,16.5156612,120.4127161
754,"Pugo",39,174,16.3213296,120.4760853
755,"Rosario",39,174,16.243367,120.4703258
756,"San Gabriel",39,174,16.6694259,120.5048792
757,"San Juan",39,174,16.6719671,120.3627578
758,"Santo Tomas",39,174,16.2753212,120.4011911
759,"Santol",39,174,16.7537529,120.5048792
760,"Sudipen",39,174,16.8998156,120.4882604
761,"Tubao",39,174,16.3558626,120.4242401
762,"Biñan City",40,174,14.3036345,121.0781493
763,"Calamba City",40,174,14.1876712,121.1250825
764,"San Pablo City",40,174,14.0642108,121.3233369
765,"Santa Rosa City",40,174,14.2843023,121.0888928
766,"Alaminos",40,174,14.0453972,121.2511908
767,"Bay",40,174,14.1320007,121.2569138
768,"Cabuyao",40,174,14.2471423,121.1366715
769,"Calauan",40,174,14.1383725,121.3198491
770,"Cavinti",40,174,14.2646732,121.5455292
771,"Famy",40,174,14.4730084,121.4842448
772,"Kalayaan",40,174,14.3312951,121.548418
773,"Liliw",40,174,14.1364476,121.4399041
774,"Los Baños",40,174,14.1699121,121.2440631
775,"Luisiana",40,174,14.190771,121.5255815
776,"Lumban",40,174,14.2956294,121.4961581
777,"Mabitac",40,174,14.433825,121.4113308
778,"Magdalena",40,174,14.204077,121.43419
779,"Majayjay",40,174,14.1446723,121.4722813
780,"Nagcarlan",40,174,14.1490291,121.3884671
781,"Paete",40,174,14.367518,121.5299539
782,"Pagsanjan",40,174,14.2624365,121.4570447
783,"Pakil",40,174,14.3974286,121.5117096
784,"Pangil",40,174,14.4074227,121.4856066
785,"Pila",40,174,14.2346148,121.3655989
786,"Rizal",40,174,14.0840758,121.4113308
787,"San Pedro",40,174,14.3488961,121.0392436
788,"Santa Cruz",40,174,14.2691095,121.4113308
789,"Santa Maria",40,174,14.5128779,121.43419
790,"Siniloan",40,174,14.4383064,121.4856066
791,"Victoria",40,174,14.202753,121.3370074
792,"Iligan City",41,174,8.2280209,124.2452422
793,"Bacolod",41,174,8.1475407,124.0307246
794,"Baloi",41,174,8.1098952,124.2310439
795,"Baroy",41,174,7.9797419,123.8299639
796,"Kapatagan",41,174,7.8677637,123.7294198
797,"Kauswagan",41,174,8.1598562,124.097547
798,"Kolambugan",41,174,8.0854743,123.8969328
799,"Lala",41,174,7.948598,123.7629465
800,"Linamon",41,174,8.1680122,124.1587576
801,"Magsaysay",41,174,8.0274204,123.919245
802,"Maigo",41,174,8.1144279,123.986149
803,"Matungao",41,174,8.1162301,124.1643201
804,"Munai",41,174,7.9467365,124.0864133
805,"Nunungan",41,174,7.8309326,123.9303991
806,"Pantao Ragat",41,174,8.0542035,124.1309397
807,"Pantar",41,174,8.0705732,124.2532741
808,"Poona Piagapo",41,174,8.0873822,124.0752783
809,"Salvador",41,174,7.9011154,123.8746152
810,"Sapad",41,174,7.8307388,123.8299639
811,"Sultan Naga Dimaporo",41,174,7.7829761,123.7405967
812,"Tagoloan",41,174,8.1428907,124.2754988
813,"Tangcal",41,174,7.9549843,123.997295
814,"Tubod",41,174,7.9942672,123.8746152
815,"Marawi City",42,174,8.0106213,124.297718
816,"Bacolod-Kalawi",42,174,7.8734775,124.1253751
817,"Balabagan",42,174,7.5434413,124.1420679
818,"Balindong",42,174,7.9281598,124.1865669
819,"Bayang",42,174,7.7407545,124.2088081
820,"Binidayan",42,174,7.7633063,124.1643201
821,"Buadiposo-Buntong",42,174,7.9651555,124.3865392
822,"Bubong",42,174,8.0206263,124.4863567
823,"Bumbaran",42,174,7.7452916,124.6635297
824,"Butig",42,174,7.6957167,124.297718
825,"Calanogas",42,174,7.7383347,124.0307246
826,"Ditsaan-Ramain",42,174,8.0012742,124.3476909
827,"Ganassi",42,174,7.8064472,124.097547
828,"Kapai",42,174,8.1075601,124.3532417
829,"Kapatagan",42,174,7.4657737,124.1865669
830,"Lumba-Bayabao",42,174,7.7821207,124.4641848
831,"Lumbaca-Unayan",42,174,7.7243588,124.236602
832,"Lumbatan",42,174,7.7552165,124.2532741
833,"Lumbayanague",42,174,7.7747951,124.2921637
834,"Madalum",42,174,7.8755241,124.1031133
835,"Madamba",42,174,7.8641537,124.0752783
836,"Maguing",42,174,7.9053318,124.5306837
837,"Malabang",42,174,7.5932005,124.0728399
838,"Marantao",42,174,7.9653062,124.1865669
839,"Marogong",42,174,7.6051002,124.1754442
840,"Masiu",42,174,7.8087467,124.3254842
841,"Mulondo",42,174,7.9216138,124.3689522
842,"Pagayawan",42,174,7.7488201,124.1198102
843,"Piagapo",42,174,8.0024753,124.1865669
844,"Poona Bayabao",42,174,7.8344621,124.3476909
845,"Pualas",42,174,7.8105028,124.0530042
846,"Saguiaran",42,174,8.0168917,124.2310439
847,"Sultan Dumalondong",42,174,7.6340809,124.2643871
848,"Picong",42,174,7.6907181,123.9415518
849,"Tagoloan II",42,174,8.099079,124.4420073
850,"Tamparan",42,174,7.8725206,124.3365882
851,"Taraka",42,174,7.8992785,124.3476909
852,"Tubaran",42,174,7.6870181,124.0864133
853,"Tugaya",42,174,7.8951444,124.1420679
854,"Wao",42,174,7.6675967,124.7077665
855,"Ormoc City",43,174,11.0384275,124.6192702
856,"Tacloban City",43,174,11.2543388,124.9616867
857,"Abuyog",43,174,10.668751,125.045173
858,"Alangalang",43,174,11.2356459,124.8844867
859,"Albuera",43,174,10.9053869,124.7519807
860,"Babatngon",43,174,11.3905109,124.8844867
861,"Barugo",43,174,11.3002334,124.7630307
862,"Bato",43,174,10.3397687,124.8495304
863,"Baybay",43,174,10.6521412,124.8525626
864,"Burauen",43,174,10.9744227,124.8932548
865,"Calubian",43,174,11.4894843,124.3643423
866,"Capoocan",43,174,11.2320771,124.6192702
867,"Carigara",43,174,11.298108,124.6786946
868,"Dagami",43,174,11.0564668,124.8513794
869,"Dulag",43,174,10.9591507,125.0057695
870,"Hilongos",43,174,10.3708121,124.7533672
871,"Hindang",43,174,10.4305009,124.7441712
872,"Inopacan",43,174,10.5479739,124.8403408
873,"Isabel",43,174,10.9179536,124.4473541
874,"Jaro",43,174,11.1758335,124.7519807
875,"Javier",43,174,10.790105,124.937714
876,"Julita",43,174,10.9841725,124.9616867
877,"Kananga",43,174,11.1647958,124.5587587
878,"La Paz",43,174,10.88257,124.9286096
879,"Leyte",43,174,11.3496551,124.4641848
880,"Liloan",43,174,11.033239,124.5473005
881,"MacArthur",43,174,10.8302022,124.9616867
882,"Mahaplag",43,174,10.6122717,124.9664732
883,"Matag-ob",43,174,11.124907,124.4752715
884,"Matalom",43,174,10.2470975,124.7961722
885,"Mayorga",43,174,10.8822823,124.9877399
886,"Merida",43,174,10.9642537,124.519604
887,"Palo",43,174,11.1583835,124.9918883
888,"Palompon",43,174,11.0172133,124.4087307
889,"Pastrana",43,174,11.1196898,124.8844867
890,"San Isidro",43,174,10.8624536,124.8811195
891,"San Miguel",43,174,10.8624536,124.8811195
892,"Santa Fe",43,174,11.179987,124.9396367
893,"Sogod",43,174,10.4329228,124.994751
894,"Tabango",43,174,11.3112889,124.3865392
895,"Tabontabon",43,174,11.0393413,124.9451498
896,"Tanauan",43,174,11.1110256,125.0155856
897,"Tolosa",43,174,11.0332911,125.0278022
898,"Tunga",43,174,11.2476956,124.7575059
899,"Villaba",43,174,11.2029531,124.4278193
900,"Cotabato City",44,174,7.2046668,124.2310439
901,"Ampatuan",44,174,6.7640051,124.3754414
902,"Barira",44,174,7.4826599,124.3088255
903,"Buldon",44,174,7.474826,124.3976356
904,"Buluan",44,174,6.7432665,124.8016945
905,"Datu Abdullah Sangki",44,174,6.8059674,124.5306837
906,"Datu Anggal Midtimbang",44,174,6.933333,124.333333
907,"Datu Blah T. Sinsuat",44,174,6.865333,124.0195827
908,"Datu Hoffer Ampatuan",44,174,6.7640051,124.3754414
909,"Datu Montawal",44,174,7.1046918,124.7630307
910,"Datu Odin Sinsuat",44,174,7.062732,124.2866091
911,"Datu Paglas",44,174,6.7410634,124.8844867
912,"Datu Piang",44,174,7.0178051,124.4974405
913,"Datu Salibo",44,174,6.9122227,124.4530968
914,"Datu Saudi-Ampatuan",44,174,6.9668336,124.4530968
915,"Datu Unsay",44,174,6.9122227,124.4530968
916,"General Salipada K. Pendatun",44,174,6.8278241,124.7077665
917,"Guindulungan",44,174,6.954103,124.3865392
918,"Kabuntalan",44,174,7.1201987,124.3643423
919,"Mamasapano",44,174,6.9431397,124.519604
920,"Mangudadatu",44,174,6.7003903,124.8293008
921,"Matanog",44,174,7.4599311,124.2532741
922,"Northern Kabuntalan",44,174,7.1776159,124.4420073
923,"Pagalungan",44,174,6.9692802,124.7519807
924,"Paglat",44,174,6.7,124.783333
925,"Pandag",44,174,6.776254,124.7851264
926,"Parang",44,174,7.3331287,124.2310439
927,"Rajah Buayan",44,174,6.9353922,124.5583766
928,"Shariff Aguak",44,174,6.8530801,124.3976356
929,"Shariff Saydona Mustapha",44,174,6.9422581,124.4198243
930,"South Upi",44,174,6.8510318,124.1976882
931,"Sultan Kudarat",44,174,7.2622127,124.3088255
932,"Sultan Mastura",44,174,7.2884721,124.2699432
933,"Sultan sa Barongis",44,174,6.9076531,124.6192702
934,"Talayan",44,174,6.8884905,124.297718
935,"Talitay",44,174,7.0270337,124.3865392
936,"Upi",44,174,7.0170998,124.1754442
937,"Boac",45,174,13.3941301,121.8790306
938,"Buenavista",45,174,13.247776,121.9814354
939,"Gasan",45,174,13.312811,121.8790306
940,"Mogpog",45,174,13.516225,121.8790306
941,"Santa Cruz",45,174,13.3642287,121.947311
942,"Torrijos",45,174,13.3343452,122.0155491
943,"Masbate City",46,174,12.3574346,123.5504076
944,"Aroroy",46,174,12.4343877,123.3884924
945,"Baleno",46,174,12.4095634,123.4607744
946,"Balud",46,174,11.9699666,123.1913722
947,"Batuan",46,174,12.3971807,123.7629465
948,"Cataingan",46,174,11.9858771,123.9527031
949,"Cawayan",46,174,12.0557941,123.7294198
950,"Claveria",46,174,12.8796205,123.2363246
951,"Dimasalang",46,174,12.167234,123.8522923
952,"Esperanza",46,174,11.8112016,124.0084395
953,"Mandaon",46,174,12.292135,123.3037143
954,"Milagros",46,174,12.2446462,123.5056016
955,"Mobo",46,174,12.2657693,123.6399562
956,"Monreal",46,174,12.6228602,123.6399562
957,"Palanas",46,174,12.1102077,123.9080896
958,"Pio V. Corpuz",46,174,11.8557616,124.041865
959,"Placer",46,174,11.9192977,123.8634544
960,"San Fernando",46,174,12.4827401,123.7182415
961,"San Jacinto",46,174,12.5370742,123.6846987
962,"San Pascual",46,174,13.0487597,123.0338767
963,"Uson",46,174,12.1681478,123.7741195
964,"Caloocan",47,174,14.7565784,121.0449768
965,"Las Piñas",47,174,14.444546,120.9938736
966,"Makati",47,174,14.554729,121.0244452
967,"Malabon",47,174,14.6829146,120.9474747
968,"Mandaluyong",47,174,14.5794443,121.0359174
969,"Manila",47,174,14.5995124,120.9842195
970,"Marikina",47,174,14.65073,121.1028546
971,"Muntinlupa",47,174,14.4081327,121.0414667
972,"Navotas",47,174,14.6714904,120.9398467
973,"Parañaque",47,174,14.4793095,121.0198229
974,"Pasay",47,174,14.5377516,121.0013794
975,"Pasig",47,174,14.5763768,121.0851097
976,"Quezon City",47,174,14.6760413,121.0437003
977,"San Juan City",47,174,14.5994146,121.0368893
978,"Taguig",47,174,14.5176184,121.0508645
979,"Valenzuela City",47,174,14.7010556,120.9830225
980,"Pateros",47,174,14.5483779,121.070773
981,"Oroquieta City",48,174,8.4595268,123.8006496
982,"Ozamiz City",48,174,8.162411,123.7741195
983,"Tangub City",48,174,8.09592,123.6846987
984,"Aloran",48,174,8.4140426,123.8159379
985,"Baliangao",48,174,8.6180946,123.6287673
986,"Bonifacio",48,174,8.1042281,123.5951925
987,"Calamba",48,174,8.5132702,123.6399562
988,"Clarin",48,174,8.2053381,123.8012033
989,"Concepcion",48,174,8.4046133,123.5951925
990,"Don Victoriano Chiongbian",48,174,8.2542401,123.5951925
991,"Jimenez",48,174,8.3227548,123.7629465
992,"Lopez Jaena",48,174,8.5267241,123.7503511
993,"Panaon",48,174,8.3559951,123.8076302
994,"Plaridel",48,174,8.6114752,123.6958809
995,"Sapang Dalaga",48,174,8.5281457,123.5839983
996,"Sinacaban",48,174,8.2997217,123.8076302
997,"Tudela",48,174,8.2477423,123.7629465
998,"Cagayan de Oro",49,174,8.4542363,124.6318977
999,"Gingoog City",49,174,8.8229902,125.0976355
1000,"Alubijid",49,174,8.5008018,124.4309165
1001,"Balingasag",49,174,8.744484,124.7816122
1002,"Balingoan",49,174,9.0040169,124.8472678
1003,"Binuangan",49,174,8.9195807,124.7837456
1004,"Claveria",49,174,8.6787819,124.9727096
1005,"El Salvador",49,174,8.5281431,124.5176557
1006,"Gitagum",49,174,8.5613858,124.3865392
1007,"Initao",49,174,8.4805169,124.3532417
1008,"Jasaan",49,174,8.6498173,124.7548322
1009,"Kinoguitan",49,174,8.9809644,124.8127381
1010,"Lagonglong",49,174,8.8152403,124.8293008
1011,"Laguindingan",49,174,8.594347,124.4309165
1012,"Libertad",49,174,8.531416,124.3587921
1013,"Lugait",49,174,8.3480149,124.2754988
1014,"Magsaysay",49,174,8.9621721,125.2038559
1015,"Manticao",49,174,8.3683953,124.3532417
1016,"Medina",49,174,8.909828,125.0113654
1017,"Naawan",49,174,8.4348761,124.3421397
1018,"Opol",49,174,8.4358992,124.519604
1019,"Salay",49,174,8.8604235,124.7892687
1020,"Sugbongcogon",49,174,8.9591453,124.7865072
1021,"Tagoloan",49,174,8.538018,124.7889493
1022,"Talisayan",49,174,8.9580214,124.8955195
1023,"Villanueva",49,174,8.5769534,124.7851264
1024,"Barlig",50,174,17.0399912,121.1435274
1025,"Bauko",50,174,16.9880897,120.8728615
1026,"Besao",50,174,17.1097133,120.8384093
1027,"Bontoc",50,174,17.091256,121.0105733
1028,"Natonin",50,174,17.1286233,121.2855249
1029,"Paracelis",50,174,17.1562214,121.4913182
1030,"Sabangan",50,174,16.9469291,120.9302603
1031,"Sadanga",50,174,17.167666,121.0564425
1032,"Sagada",50,174,17.0981353,120.907304
1033,"Tadian",50,174,16.9660794,120.8154358
1034,"Bacolod City",51,174,10.6407389,122.9689565
1035,"Bago City",51,174,10.503405,122.9663018
1036,"Cadiz City",51,174,10.8060057,123.213851
1037,"Escalante City",51,174,10.8291458,123.5056016
1038,"Himamaylan City",51,174,10.0902184,122.8683684
1039,"Kabankalan City",51,174,9.9134117,122.8535755
1040,"La Carlota City",51,174,10.4117687,123.000095
1041,"Sagay City",51,174,10.8783445,123.408176
1042,"San Carlos City",51,174,10.4837342,123.4128956
1043,"Silay City",51,174,10.7528182,123.0875623
1044,"Sipalay City",51,174,9.7197887,122.4920088
1045,"Talisay City",51,174,10.7325049,123.0113568
1046,"Victorias City",51,174,10.8698236,123.0901539
1047,"Binalbagan",51,174,10.1999593,122.8664849
1048,"Calatrava",51,174,10.6062889,123.4159263
1049,"Candoni",51,174,9.7610592,122.650351
1050,"Cauayan",51,174,9.9429855,122.5825197
1051,"Enrique B. Magalona",51,174,10.8891201,123.0113568
1052,"Hinigaran",51,174,10.2713554,122.8549853
1053,"Hinoba-an",51,174,9.5463157,122.5194418
1054,"Ilog",51,174,9.983971,122.740723
1055,"Isabela",51,174,10.2256635,123.0113568
1056,"La Castellana",51,174,10.3194742,123.0198024
1057,"Manapla",51,174,10.9119601,123.1463992
1058,"Moises Padilla",51,174,10.2626864,123.1126559
1059,"Murcia",51,174,10.5656309,123.1014056
1060,"Pontevedra",51,174,10.3526591,122.9212265
1061,"Pulupandan",51,174,10.5259472,122.8140914
1062,"Salvador Benedicto",51,174,10.5641361,123.254713
1063,"San Enrique",51,174,10.4273504,122.8648538
1064,"Toboso",51,174,10.7176887,123.4607744
1065,"Valladolid",51,174,10.4689768,122.8422959
1066,"Bais City",52,174,9.5915686,123.1211792
1067,"Bayawan City",52,174,9.4498906,122.8535755
1068,"Canlaon City",52,174,10.3604776,123.1913722
1069,"Guihulngan City",52,174,10.1832304,123.213851
1070,"Dumaguete City",52,174,9.3068402,123.3054467
1071,"Tanjay City",52,174,9.4957882,122.9663018
1072,"Amlan",52,174,9.4443634,123.1801309
1073,"Ayungon",52,174,9.8500812,123.1389366
1074,"Bacong",52,174,9.2391819,123.2644093
1075,"Basay",52,174,9.4386369,122.6842498
1076,"Bindoy",52,174,9.7945327,123.0563914
1077,"Dauin",52,174,9.1990827,123.2363246
1078,"Jimalalud",52,174,10.0215739,123.1014056
1079,"La Libertad",52,174,10.0502042,123.1913722
1080,"Mabinay",52,174,9.7488302,122.9437667
1081,"Manjuyod",52,174,9.6739192,123.1014056
1082,"Pamplona",52,174,9.4478304,123.0563914
1083,"San Jose",52,174,9.4012491,123.2250884
1084,"Santa Catalina",52,174,9.2867599,122.9437667
1085,"Siaton",52,174,9.1242532,123.0338767
1086,"Sibulan",52,174,9.3508301,123.1576444
1087,"Tayasan",52,174,9.9441736,123.1014056
1088,"Valencia",52,174,9.2802603,123.1913722
1089,"Vallehermoso",52,174,10.3390548,123.2924859
1090,"Zamboanguita",52,174,9.1701181,123.1463992
1091,"Allen",53,174,12.5033683,124.287538
1092,"Biri",53,174,12.6605974,124.4087307
1093,"Bobon",53,174,12.416216,124.5306837
1094,"Capul",53,174,12.4195328,124.1643201
1095,"Catarman",53,174,12.4198447,124.6414028
1096,"Catubig",53,174,12.4088292,125.0528834
1097,"Gamay",53,174,12.3848356,125.2807624
1098,"Laoang",53,174,12.6198618,125.0167866
1099,"Lapinig",53,174,12.314904,125.2917432
1100,"Las Navas",53,174,12.3064077,125.0167866
1101,"Lavezares",53,174,12.5601209,124.3532417
1102,"Lope de Vega",53,174,12.2792099,124.6635297
1103,"Mapanas",53,174,12.4695163,125.2368246
1104,"Mondragon",53,174,12.4169586,124.7961722
1105,"Palapag",53,174,12.5283023,125.1048713
1106,"Pambujan",53,174,12.4645777,124.9396367
1107,"Rosario",53,174,12.5192689,124.4309165
1108,"San Antonio",53,174,12.4109731,124.2588308
1109,"San Isidro",53,174,12.3566415,124.3976356
1110,"San Jose",53,174,12.540774,124.4863567
1111,"San Roque",53,174,12.4432703,124.8844867
1112,"San Vicente",53,174,12.2735511,124.0991485
1113,"Silvino Lobos",53,174,12.2865134,124.8844867
1114,"Victoria",53,174,12.4472652,124.3141018
1115,"Cabanatuan City",54,174,15.4865047,120.973393
1116,"Gapan City",54,174,15.2912094,121.0105733
1117,"Science City of Muñoz",54,174,15.7294899,120.8728615
1118,"Palayan City",54,174,15.5782871,121.1113286
1119,"San Jose City",54,174,15.8037018,120.9991032
1120,"Aliaga",54,174,15.5120421,120.8613785
1121,"Bongabon",54,174,15.6719324,121.2397438
1122,"Cabiao",54,174,15.228918,120.8728615
1123,"Carranglan",54,174,15.975838,121.03351
1124,"Cuyapo",54,174,15.799952,120.6890055
1125,"Gabaldon",54,174,15.5154793,121.3084088
1126,"General Mamerto Natividad",54,174,15.5878761,121.0449768
1127,"General Tinio",54,174,15.3634465,121.2168466
1128,"Guimba",54,174,15.6672998,120.734995
1129,"Jaen",54,174,15.3627393,120.8838016
1130,"Laur",54,174,15.5247743,121.1824925
1131,"Licab",54,174,15.5470573,120.769476
1132,"Llanera",54,174,15.6662314,121.0105733
1133,"Lupao",54,174,15.847683,120.9187827
1134,"Nampicuan",54,174,15.711115,120.6545022
1135,"Pantabangan",54,174,15.7942377,121.1252135
1136,"Peñaranda",54,174,15.3531129,121.0166804
1137,"Quezon",54,174,15.569531,120.8269231
1138,"Rizal",54,174,15.6935714,121.1022942
1139,"San Antonio",54,174,15.3192138,120.8269231
1140,"San Isidro",54,174,15.2965633,120.907304
1141,"San Leonardo",54,174,15.3728539,120.9532123
1142,"Santa Rosa",54,174,15.4250546,120.9383613
1143,"Santo Domingo",54,174,15.6128413,120.8843434
1144,"Talavera",54,174,15.6265854,120.9302603
1145,"Talugtug",54,174,15.7698001,120.8154358
1146,"Zaragoza",54,174,15.4391609,120.792458
1147,"Alfonso Castaneda",55,174,15.9318902,121.3084088
1148,"Ambaguio",55,174,16.5793584,121.0564425
1149,"Aritao",55,174,16.2514964,121.0105733
1150,"Bagabag",55,174,16.5833702,121.2855249
1151,"Bambang",55,174,16.4041468,121.1022942
1152,"Bayombong",55,174,16.4804228,121.1481284
1153,"Diadi",55,174,16.659499,121.3312882
1154,"Dupax del Norte",55,174,16.3058213,121.1220703
1155,"Dupax del Sur",55,174,16.291992,121.0967899
1156,"Kasibu",55,174,16.3665886,121.3312882
1157,"Kayapa",55,174,16.4932638,120.9417368
1158,"Quezon",55,174,16.4577856,121.2855249
1159,"Santa Fe",55,174,16.1898433,120.8728615
1160,"Solano",55,174,16.5271332,121.1824925
1161,"Villaverde",55,174,16.6061604,121.1481284
1162,"Abra de Ilog",56,174,13.3638315,120.7579834
1163,"Calintaan",56,174,12.6040937,121.1022942
1164,"Looc",56,174,13.7438888,120.2281933
1165,"Lubang",56,174,13.7976866,120.1358346
1166,"Magsaysay",56,174,12.3086083,121.193945
1167,"Mamburao",56,174,13.2681778,120.6204892
1168,"Paluan",56,174,13.4340616,120.4602838
1169,"Rizal",56,174,12.4939627,121.0105733
1170,"Sablayan",56,174,12.8582122,120.8924629
1171,"San Jose",56,174,12.3474326,121.0659175
1172,"Santa Cruz",56,174,13.105773,120.8498944
1173,"Calapan City",57,174,13.3770935,121.1645706
1174,"Baco",57,174,13.2623378,121.0564425
1175,"Bansud",57,174,12.8526728,121.3770336
1176,"Bongabong",57,174,12.7075664,121.3998995
1177,"Bulalacao",57,174,12.395261,121.3084088
1178,"Gloria",57,174,12.9339703,121.3770336
1179,"Mansalay",57,174,12.520154,121.438851
1180,"Naujan",57,174,13.2376219,121.2397438
1181,"Pinamalayan",57,174,13.0458654,121.4645392
1182,"Pola",57,174,13.1317415,121.4351105
1183,"Puerto Galera",57,174,13.5018907,120.95412
1184,"Roxas",57,174,12.5988102,121.4835193
1185,"San Teodoro",57,174,13.3156035,120.9646866
1186,"Socorro",57,174,13.0621737,121.3312882
1187,"Victoria",57,174,13.1559921,121.2397438
1188,"Puerto Princesa City",58,174,9.9672163,118.78551
1189,"Aborlan",58,174,9.5621138,118.4396756
1190,"Agutaya",58,174,11.1530551,120.9630347
1191,"Araceli",58,174,10.5582424,119.950926
1192,"Balabac",58,174,8.1539618,117.1264753
1193,"Bataraza",58,174,8.5299423,117.4086488
1194,"Brooke's Point",58,174,8.8189341,117.784246
1195,"Busuanga",58,174,12.1586189,119.9277947
1196,"Cagayancillo",58,174,9.634473,121.2397438
1197,"Coron",58,174,12.0499255,120.1781748
1198,"Culion",58,174,11.8219287,120.0202964
1199,"Cuyo",58,174,10.8358931,121.0016228
1200,"Dumaran",58,174,10.506656,119.6730939
1201,"El Nido",58,174,11.2097089,119.4622539
1202,"Kalayaan",58,174,9.7429149,118.7722243
1203,"Linapacan",58,174,11.4599656,119.8120795
1204,"Magsaysay",58,174,10.8606368,121.0568154
1205,"Narra",58,174,9.2506301,118.3461948
1206,"Quezon",58,174,9.4184634,118.2526623
1207,"Rizal",58,174,8.8338702,117.5965403
1208,"Roxas",58,174,10.3069084,119.256946
1209,"San Vicente",58,174,10.5126542,119.3645562
1210,"Sofronio Española",58,174,9.0427952,117.9717606
1211,"Taytay",58,174,10.8177027,119.4995359
1212,"Angeles City",59,174,15.1449853,120.5887029
1213,"City of San Fernando",59,174,15.0593937,120.6567054
1214,"Apalit",59,174,14.9601027,120.792458
1215,"Arayat",59,174,15.1649828,120.780348
1216,"Bacolor",59,174,15.0316774,120.6257423
1217,"Candaba",59,174,15.1040545,120.8728615
1218,"Floridablanca",59,174,14.9573133,120.4588059
1219,"Guagua",59,174,14.9763617,120.612406
1220,"Lubao",59,174,14.9021333,120.5509358
1221,"Mabalacat",59,174,15.2228709,120.5744387
1222,"Macabebe",59,174,14.9147324,120.6775054
1223,"Magalang",59,174,15.2480028,120.6775054
1224,"Masantol",59,174,14.8523369,120.6775054
1225,"Mexico",59,174,15.0986624,120.7005044
1226,"Minalin",59,174,14.9529427,120.7005044
1227,"Porac",59,174,15.1241838,120.4588059
1228,"San Luis",59,174,15.0190635,120.8154358
1229,"San Simon",59,174,14.98866,120.7752219
1230,"Santa Ana",59,174,15.1091694,120.769476
1231,"Santa Rita",59,174,15.0081967,120.6084832
1232,"Santo Tomas",59,174,14.9972031,120.7177509
1233,"Sasmuan",59,174,14.8876364,120.6142365
1234,"Alaminos City",60,174,16.1505291,119.9856157
1235,"Dagupan City",60,174,16.0432998,120.3333124
1236,"San Carlos City",60,174,15.8989343,120.3204873
1237,"Urdaneta City",60,174,15.9758027,120.5706933
1238,"Agno",60,174,16.1032876,119.8120795
1239,"Aguilar",60,174,15.8361182,120.182022
1240,"Alcala",60,174,15.8546015,120.5394232
1241,"Anda",60,174,16.2982564,119.9856157
1242,"Asingan",60,174,16.0043719,120.6545022
1243,"Balungao",60,174,15.8837087,120.6890055
1244,"Bani",60,174,16.2229069,119.8583772
1245,"Basista",60,174,15.8716297,120.3954282
1246,"Bautista",60,174,15.7952754,120.5163949
1247,"Bayambang",60,174,15.8007665,120.4127161
1248,"Binalonan",60,174,16.0658528,120.5969758
1249,"Binmaley",60,174,15.9988508,120.2858846
1250,"Bolinao",60,174,16.3425356,119.8927296
1251,"Bugallon",60,174,15.9202228,120.182022
1252,"Burgos",60,174,16.0627885,119.8699493
1253,"Calasiao",60,174,15.9881323,120.3550808
1254,"Dasol",60,174,15.9625872,119.9046594
1255,"Infanta",60,174,15.8712746,119.950926
1256,"Labrador",60,174,16.0027382,120.1242853
1257,"Laoac",60,174,16.0434054,120.5394232
1258,"Lingayen",60,174,16.0059867,120.2397336
1259,"Mabini",60,174,16.0327818,119.9971769
1260,"Malasiqui",60,174,15.9195445,120.4588059
1261,"Manaoag",60,174,16.0506178,120.4933624
1262,"Mangaldan",60,174,16.0650193,120.4011911
1263,"Mangatarem",60,174,15.7554816,120.2974199
1264,"Mapandan",60,174,16.0183677,120.464566
1265,"Natividad",60,174,16.0382145,120.8384093
1266,"Pozzorubio",60,174,16.1100109,120.5163949
1267,"Rosales",60,174,15.8612554,120.6314948
1268,"San Fabian",60,174,16.1418764,120.447285
1269,"San Jacinto",60,174,16.0788317,120.447285
1270,"San Manuel",60,174,16.1056069,120.6775054
1271,"San Nicolas",60,174,16.1206625,120.7809676
1272,"San Quintin",60,174,15.9754023,120.8384093
1273,"Santa Barbara",60,174,15.9773962,120.4242401
1274,"Santa Maria",60,174,16.1519659,119.924903
1275,"Santo Tomas",60,174,15.8671372,120.5768354
1276,"Sison",60,174,16.1694019,120.5394232
1277,"Sual",60,174,16.0976673,120.0549683
1278,"Tayug",60,174,16.0108539,120.7464897
1279,"Umingan",60,174,15.9039605,120.8269231
1280,"Urbiztondo",60,174,15.8446544,120.3320195
1281,"Villasis",60,174,15.9052332,120.5509358
1282,"Lucena City",61,174,13.9413957,121.6234471
1283,"Tayabas City",61,174,14.0363869,121.6532692
1284,"Agdangan",61,174,13.8852892,121.9359339
1285,"Alabat",61,174,14.1031468,122.0137161
1286,"Atimonan",61,174,13.9966108,121.9180499
1287,"Buenavista",61,174,13.7224871,122.424074
1288,"Burdeos",61,174,14.9362704,121.9700618
1289,"Calauag",61,174,14.0592792,122.3573039
1290,"Candelaria",61,174,13.9079615,121.422761
1291,"Catanauan",61,174,13.5951814,122.323047
1292,"Dolores",61,174,14.0224626,121.4113308
1293,"General Luna",61,174,13.6997716,122.2313539
1294,"General Nakar",61,174,14.9067808,121.4913182
1295,"Guinayangan",61,174,13.8376988,122.4693688
1296,"Gumaca",61,174,13.8910464,122.1064668
1297,"Infanta",61,174,14.7259749,121.662532
1298,"Jomalig",61,174,14.6998994,122.367428
1299,"Lopez",61,174,13.80005,122.3107517
1300,"Lucban",61,174,14.1344459,121.5598345
1301,"Macalelon",61,174,13.767401,122.1859572
1302,"Mauban",61,174,14.1807733,121.7062391
1303,"Mulanay",61,174,13.5130753,122.4693688
1304,"Padre Burgos",61,174,14.5889124,120.9808882
1305,"Pagbilao",61,174,13.984943,121.7423434
1306,"Panukulan",61,174,14.9916254,121.8790306
1307,"Patnanungan",61,174,14.7896353,122.1859572
1308,"Perez",61,174,14.1681457,121.958687
1309,"Pitogo",61,174,13.8009753,122.0951062
1310,"Plaridel",61,174,13.939214,122.0212337
1311,"Polillo",61,174,14.737501,121.9245556
1312,"Quezon",61,174,14.0313906,122.1130909
1313,"Real",61,174,14.5456943,121.5598345
1314,"Sampaloc",61,174,14.1774396,121.6169002
1315,"San Andres",61,174,13.325187,122.650351
1316,"San Antonio",61,174,14.6505719,121.0177415
1317,"San Francisco",61,174,13.3470576,122.520188
1318,"San Narciso",61,174,13.5689382,122.5662442
1319,"Sariaya",61,174,13.8949151,121.5141615
1320,"Tagkawayan",61,174,14.0129241,122.5219792
1321,"Tiaong",61,174,13.9540912,121.3392626
1322,"Unisan",61,174,13.8635134,122.0155491
1323,"Aglipay",62,174,16.4464328,121.6054893
1324,"Cabarroguis",62,174,16.4199058,121.5141615
1325,"Diffun",62,174,16.5528764,121.4684703
1326,"Maddela",62,174,16.332553,121.7879244
1327,"Nagtipunan",62,174,16.1524327,121.4913182
1328,"Saguday",62,174,16.5461135,121.57125
1329,"Antipolo City",63,174,14.6254827,121.1244847
1330,"Angono",63,174,14.5457372,121.1767658
1331,"Baras",63,174,14.5365625,121.2740813
1332,"Binangonan",63,174,14.4765477,121.195743
1333,"Cainta",63,174,14.5864844,121.114876
1334,"Cardona",63,174,14.3619051,121.2340199
1335,"Jalajala",63,174,14.3408884,121.3427262
1336,"Morong",63,174,14.5181416,121.2389794
1337,"Pililla",63,174,14.4439278,121.3427262
1338,"Rodriguez",63,174,14.759817,121.2019468
1339,"San Mateo",63,174,14.6774841,121.1595842
1340,"Tanay",63,174,14.5797053,121.3312882
1341,"Taytay",63,174,14.5585549,121.1360819
1342,"Teresa",63,174,14.5699776,121.2225713
1343,"Alcantara",64,174,12.2896632,122.0496521
1344,"Banton",64,174,12.9516465,122.0723816
1345,"Cajidiocan",64,174,12.4006192,122.650351
1346,"Calatrava",64,174,12.6085316,122.0723816
1347,"Concepcion",64,174,12.9201094,121.7081454
1348,"Corcuera",64,174,12.8074809,122.0553349
1349,"Ferrol",64,174,12.3215972,121.958687
1350,"Looc",64,174,12.2554013,122.004179
1351,"Magdiwang",64,174,12.4673942,122.5259596
1352,"Odiongan",64,174,12.40467,122.0155491
1353,"Romblon",64,174,12.5778554,122.269129
1354,"San Agustin",64,174,12.5621918,122.1178261
1355,"San Andres",64,174,12.5309878,122.0496521
1356,"San Fernando",64,174,12.3266716,122.6051351
1357,"San Jose",64,174,12.0634689,121.9359339
1358,"Santa Fe",64,174,12.1534405,122.0133747
1359,"Santa Maria",64,174,12.4243756,122.0951062
1360,"Calbayog City",65,174,12.0675749,124.5929574
1361,"Catbalogan City",65,174,11.8240433,124.8403408
1362,"Almagro",65,174,11.9452032,124.3199316
1363,"Basey",65,174,11.4096717,125.1708741
1364,"Calbiga",65,174,11.5990317,125.0608405
1365,"Daram",65,174,11.6804791,124.7519807
1366,"Gandara",65,174,12.0972477,124.8403408
1367,"Hinabangan",65,174,11.7357986,125.1928634
1368,"Jiabong",65,174,11.836268,124.9616867
1369,"Marabut",65,174,11.2329465,125.1928634
1370,"Matuguinao",65,174,12.1955083,124.9727096
1371,"Motiong",65,174,11.8464315,125.0278022
1372,"Pagsanghan",65,174,11.9688884,124.7464552
1373,"Paranas",65,174,11.8872919,125.0828588
1374,"Pinabacdao",65,174,11.5490498,125.0718504
1375,"San Jorge",65,174,11.9675662,124.9286096
1376,"San Jose De Buan",65,174,12.065706,125.0608405
1377,"San Sebastian",65,174,11.6909375,125.0278022
1378,"Santa Margarita",65,174,12.0378651,124.7077665
1379,"Santa Rita",65,174,11.4500484,125.0167866
1380,"Santo Niño",65,174,11.9298385,124.4309165
1381,"Tagapul-an",65,174,12.061838,124.1865669
1382,"Talalora",65,174,11.504659,124.8293008
1383,"Tarangnan",65,174,11.9181321,124.7887384
1384,"Villareal",65,174,11.5396304,124.9286096
1385,"Zumarraga",65,174,11.6570665,124.8513794
1386,"Alabel",66,174,6.1850325,125.3466253
1387,"Glan",66,174,5.7600383,125.3466253
1388,"Kiamba",66,174,6.0233926,124.6414028
1389,"Maasim",66,174,5.9267175,124.994751
1390,"Maitum",66,174,6.1240808,124.4863567
1391,"Malapatan",66,174,5.9663386,125.2853778
1392,"Malungon",66,174,6.3343032,125.2587964
1393,"Enrique Villanueva",67,174,9.2721592,123.6373254
1394,"Larena",67,174,9.2463372,123.6063855
1395,"Lazi",67,174,9.1237254,123.5951925
1396,"Maria",67,174,9.165458,123.6511438
1397,"San Juan",67,174,9.1604408,123.5168051
1398,"Siquijor",67,174,9.2132631,123.5157032
1399,"Sorsogon City",68,174,12.9927095,124.0147464
1400,"Barcelona",68,174,12.8414943,124.1198102
1401,"Bulan",68,174,12.6649939,123.8877345
1402,"Bulusan",68,174,12.7490198,124.1223209
1403,"Casiguran",68,174,12.8430016,124.041865
1404,"Castilla",68,174,12.9551774,123.8187977
1405,"Donsol",68,174,12.9943166,123.5504076
1406,"Gubat",68,174,12.9201825,124.1227746
1407,"Irosin",68,174,12.7239816,124.041865
1408,"Juban",68,174,12.8163129,123.9527031
1409,"Magallanes",68,174,12.7895466,123.8634544
1410,"Matnog",68,174,12.6077499,124.0577755
1411,"Pilar",68,174,12.9348973,123.6846987
1412,"Prieto Diaz",68,174,13.0334055,124.1643201
1413,"Santa Magdalena",68,174,12.641824,124.1017044
1414,"General Santos City",69,174,6.1163861,125.171618
1415,"Koronadal City",69,174,6.4973963,124.8471625
1416,"Banga",69,174,6.3879114,124.7961722
1417,"Lake Sebu",69,174,6.2447394,124.5528387
1418,"Norala",69,174,6.5205908,124.6648038
1419,"Polomolok",69,174,6.224513,125.0608405
1420,"Santo Niño",69,174,6.4371507,124.6744413
1421,"Surallah",69,174,6.3194959,124.7519807
1422,"T'boli",69,174,6.1468256,124.906551
1423,"Tampakan",69,174,6.4912111,125.0828588
1424,"Tantangan",69,174,6.5712051,124.7608883
1425,"Tupi",69,174,6.3384936,124.9727096
1426,"Maasin City",70,174,10.1653546,124.8403408
1427,"Anahawan",70,174,10.276242,125.2589751
1428,"Bontoc",70,174,10.3440168,124.9454307
1429,"Hinunangan",70,174,10.394583,125.148879
1430,"Hinundayan",70,174,10.3563636,125.2258365
1431,"Libagon",70,174,10.3373777,125.0718504
1432,"Liloan",70,174,10.1333123,125.1838268
1433,"Limasawa",70,174,9.9302782,125.0746026
1434,"Macrohon",70,174,10.0643286,124.9513384
1435,"Malitbog",70,174,10.1792471,124.9616867
1436,"Padre Burgos",70,174,10.0786787,125.0057695
1437,"Pintuyan",70,174,9.99513,125.2258365
1438,"Saint Bernard",70,174,10.3128473,125.1158754
1439,"San Francisco",70,174,10.0790426,125.1598773
1440,"San Juan",70,174,10.2856148,125.1818695
1441,"San Ricardo",70,174,9.9769939,125.2738186
1442,"Silago",70,174,10.5147236,125.1048713
1443,"Sogod",70,174,10.4329228,124.994751
1444,"Tomas Oppus",70,174,10.2746228,124.9616867
1445,"Tacurong City",71,174,6.6879658,124.6787735
1446,"Bagumbayan",71,174,6.4605979,124.5528387
1447,"Columbio",71,174,6.634899,125.0828588
1448,"Esperanza",71,174,6.6988987,124.5448753
1449,"Isulan",71,174,6.6322636,124.5978144
1450,"Kalamansig",71,174,6.5538483,124.0522756
1451,"Lambayong",71,174,6.8078116,124.630697
1452,"Lebak",71,174,6.632811,124.1976882
1453,"Lutayan",71,174,6.5967939,124.8844867
1454,"Palimbang",71,174,6.3432167,124.1976882
1455,"President Quirino",71,174,6.7255838,124.7409293
1456,"Senator Ninoy Aquino",71,174,6.3856675,124.3532417
1457,"Banguingui",72,174,6.0757575,121.7651362
1458,"Hadji Panglima Tahil",72,174,6.3230002,120.8537138
1459,"Indanan",72,174,5.9891447,120.9532123
1460,"Jolo",72,174,5.9691815,121.1252135
1461,"Kalingalan Caluang",72,174,5.9038822,121.2855249
1462,"Lugus",72,174,5.6823929,120.8384093
1463,"Luuk",72,174,5.9662041,121.3198491
1464,"Maimbung",72,174,5.9578493,121.0105733
1465,"Old Panamao",72,174,5.9719555,121.2282958
1466,"Omar",72,174,6.0086657,121.3770336
1467,"Pandami",72,174,5.5145914,120.7634139
1468,"Panglima Estino",72,174,5.9563766,121.1824925
1469,"Pangutaran",72,174,6.3012095,120.5739579
1470,"Parang",72,174,5.9450652,120.9183115
1471,"Pata",72,174,5.8288038,121.1595842
1472,"Patikul",72,174,6.0630225,121.1022942
1473,"Siasi",72,174,5.5241879,120.8728615
1474,"Talipao",72,174,5.9521498,121.1022942
1475,"Tapul",72,174,5.7268965,120.907309
1476,"Surigao City",73,174,9.7571312,125.5137674
1477,"Alegria",73,174,9.4794327,125.5986093
1478,"Bacuag",73,174,9.5412674,125.6314191
1479,"Basilisa",73,174,10.0668367,125.6028665
1480,"Burgos",73,174,10.0199943,126.0621579
1481,"Cagdianao",73,174,9.4836951,125.8825144
1482,"Claver",73,174,9.4833017,125.8061779
1483,"Dapa",73,174,9.7517544,126.0675952
1484,"Del Carmen",73,174,9.8749769,125.9805528
1485,"Dinagat",73,174,9.7571312,125.5137674
1486,"General Luna",73,174,9.7786239,126.1545404
1487,"Gigaquit",73,174,9.456065,125.7188463
1488,"Libjo",73,174,9.514828,125.6969984
1489,"Loreto",73,174,10.086022,125.5988564
1490,"Mainit",73,174,9.5566281,125.5000999
1491,"Malimono",73,174,9.5749836,125.4233987
1492,"Pilar",73,174,9.8642881,126.0675952
1493,"Placer",73,174,9.6484441,125.5986093
1494,"San Benito",73,174,9.9582369,125.9914384
1495,"San Francisco",73,174,9.709407,125.4014708
1496,"San Isidro",73,174,9.9394107,126.0675952
1497,"San Jose",73,174,9.7608785,125.6614829
1498,"Santa Monica",73,174,10.0321172,126.0404049
1499,"Sison",73,174,9.6425506,125.489147
1500,"Socorro",73,174,9.6176113,125.9369952
1501,"Tagana-an",73,174,9.723693,125.5986093
1502,"Tubajon",73,174,9.514828,125.6969984
1503,"Tubod",73,174,9.5784122,125.5548422
1504,"Bislig City",74,174,8.2100558,126.2847751
1505,"Tandag City",74,174,9.1011711,126.1588771
1506,"Barobo",74,174,8.5175454,126.1232175
1507,"Bayabas",74,174,8.9761469,126.2522371
1508,"Cagwait",74,174,8.8936805,126.301635
1509,"Cantilan",74,174,9.2828234,125.9421877
1510,"Carmen",74,174,9.2018218,125.9805528
1511,"Carrascal",74,174,9.3983129,125.8934136
1512,"Cortes",74,174,9.1818389,126.1545404
1513,"Hinatuan",74,174,8.3837155,126.3714756
1514,"Lanuza",74,174,9.1515977,126.0132051
1515,"Lianga",74,174,8.636616,126.0675952
1516,"Lingig",74,174,8.0872666,126.4147889
1517,"Madrid",74,174,9.2223586,125.8825144
1518,"Marihatag",74,174,8.7842062,126.0675952
1519,"San Agustin",74,174,8.7313821,126.2028141
1520,"San Miguel",74,174,8.9628189,125.958777
1521,"Tagbina",74,174,8.418142,126.2196853
1522,"Tago",74,174,8.9642949,126.11108
1523,"Tarlac City",75,174,15.4754786,120.5963492
1524,"Anao",75,174,15.7435017,120.6142365
1525,"Bamban",75,174,15.2373082,120.4703258
1526,"Camiling",75,174,15.6871913,120.4182522
1527,"Capas",75,174,15.333524,120.59045
1528,"Concepcion",75,174,15.340141,120.6890055
1529,"Gerona",75,174,15.6119341,120.5509358
1530,"La Paz",75,174,15.4496952,120.7234992
1531,"Mayantoc",75,174,15.5632012,120.3204873
1532,"Moncada",75,174,15.7325056,120.5726786
1533,"Paniqui",75,174,15.6660645,120.5585595
1534,"Pura",75,174,15.6200321,120.6516265
1535,"Ramos",75,174,15.6732128,120.6458749
1536,"San Clemente",75,174,15.7081371,120.369189
1537,"San Jose",75,174,15.4200153,120.2974199
1538,"San Manuel",75,174,15.4905059,120.666334
1539,"Santa Ignacia",75,174,15.5841222,120.4588059
1540,"Victoria",75,174,15.5907661,120.6890055
1541,"Bongao",76,174,5.1041783,119.8120795
1542,"Languyan",76,174,5.3764423,120.2281933
1543,"Mapun",76,174,6.9970293,118.4747173
1544,"Panglima Sugala",76,174,5.0947534,119.9971769
1545,"Sapa-Sapa",76,174,5.140284,120.1960525
1546,"Sibutu",76,174,4.7814149,119.4759634
1547,"Simunul",76,174,4.8562822,119.8236554
1548,"Sitangkai",76,174,4.7437631,119.4005185
1549,"South Ubian",76,174,5.3958383,120.378138
1550,"Tandubas",76,174,5.2074694,120.2974199
1551,"Turtle Islands",76,174,6.231993,118.0684788
1552,"Olongapo City",77,174,14.8386303,120.2842023
1553,"Botolan",77,174,15.2893147,120.0255588
1554,"Cabangan",77,174,15.1580579,120.0552506
1555,"Candelaria",77,174,15.63998,120.0896313
1556,"Castillejos",77,174,14.9438211,120.1935663
1557,"Iba",77,174,15.3329773,119.975756
1558,"Masinloc",77,174,15.5285527,119.9608002
1559,"Palauig",77,174,15.4522102,119.9547522
1560,"San Antonio",77,174,14.9275093,120.0896313
1561,"San Felipe",77,174,15.0660307,120.0685217
1562,"San Marcelino",77,174,15.026051,120.2743484
1563,"San Narciso",77,174,15.0145224,120.0794629
1564,"Santa Cruz",77,174,15.7730771,120.043412
1565,"Subic",77,174,14.8967937,120.2366297
1566,"Dapitan City",78,174,8.6253193,123.3945709
1567,"Dipolog City",78,174,8.5142736,123.3373916
1568,"Bacungan",78,174,8.0698498,122.9437667
1569,"Baliguian",78,174,7.8314281,122.2200065
1570,"Godod",78,174,7.9857721,122.831015
1571,"Gutalac",78,174,7.9500324,122.3787597
1572,"Jose Dalman",78,174,8.3803129,123.0563914
1573,"Kalawit",78,174,7.9004786,122.5146439
1574,"Katipunan",78,174,8.3968825,123.2812562
1575,"La Libertad",78,174,8.4759286,123.5392081
1576,"Labason",78,174,8.0515321,122.5146439
1577,"Liloy",78,174,8.0732477,122.695547
1578,"Manukan",78,174,8.4517275,123.1014056
1579,"Mutia",78,174,8.3838876,123.5168051
1580,"Piñan",78,174,8.4091496,123.4495644
1581,"Polanco",78,174,8.4889024,123.4047109
1582,"President Manuel A. Roxas",78,174,8.4515732,123.2026122
1583,"Rizal",78,174,8.6224125,123.5216874
1584,"Salug",78,174,8.0651754,122.7858791
1585,"Sergio Osmeña Sr.",78,174,8.2711967,123.213851
1586,"Siayan",78,174,8.0744263,123.1014056
1587,"Sibuco",78,174,7.3120722,122.1291843
1588,"Sibutad",78,174,8.6124105,123.4943968
1589,"Sindangan",78,174,8.2333765,123.0113568
1590,"Siocon",78,174,7.6635583,122.1973081
1591,"Sirawai",78,174,7.5506234,122.1973081
1592,"Tampilisan",78,174,7.9724826,122.6616518
1593,"Pagadian City",79,174,7.8397033,123.4343445
1594,"Zamboanga City",79,174,7.8383054,123.2966657
1595,"Aurora",79,174,7.9545804,123.5951925
1596,"Bayog",79,174,7.9281492,123.0563914
1597,"Dimataling",79,174,7.5111272,123.3466134
1598,"Dinas",79,174,7.6053638,123.3261671
1599,"Dumalinao",79,174,7.7879173,123.3710571
1600,"Dumingag",79,174,8.1875395,123.3037143
1601,"Guipos",79,174,7.7461852,123.3149413
1602,"Josefina",79,174,8.2071152,123.5218729
1603,"Kumalarang",79,174,7.7702986,123.1463992
1604,"Labangan",79,174,7.9210477,123.4495644
1605,"Lakewood",79,174,7.8826426,123.1463992
1606,"Lapuyan",79,174,7.6916191,123.1913722
1607,"Mahayag",79,174,8.0941532,123.4513107
1608,"Margosatubig",79,174,7.5713219,123.1801309
1609,"Midsalip",79,174,8.0246226,123.2363246
1610,"Molave",79,174,8.1041862,123.4943968
1611,"Pitogo",79,174,7.4463331,123.3373916
1612,"Ramon Magsaysay",79,174,8.0042298,123.4607744
1613,"San Miguel",79,174,7.6838107,123.2812562
1614,"San Pablo",79,174,7.6804104,123.4271403
1615,"Sominot",79,174,8.0394905,123.3822764
1616,"Tabina",79,174,7.4201882,123.4271403
1617,"Tambulig",79,174,8.0625813,123.5392081
1618,"Tigbao",79,174,7.8332411,123.2812562
1619,"Tukuran",79,174,7.9129547,123.5392081
1620,"Vincenzo A. Sagun",79,174,7.5173397,123.1576444
1621,"Alicia",80,174,7.5241801,122.9663018
1622,"Buug",80,174,7.7407246,123.0563914
1623,"Diplahan",80,174,7.7485401,122.9663018
1624,"Imelda",80,174,7.6525261,122.9478926
1625,"Ipil",80,174,7.7900534,122.593828
1626,"Kabasalan",80,174,7.7902115,122.7833174
1627,"Mabuhay",80,174,7.3890406,122.9099545
1628,"Malangas",80,174,7.6240223,123.000095
1629,"Naga",80,174,7.8070892,122.7012642
1630,"Olutanga",80,174,7.3405648,122.8197329
1631,"Payao",80,174,7.582601,122.8424737
1632,"Roseller Lim",80,174,7.719853,122.424074
1633,"Siay",80,174,7.7188546,122.8761309
1634,"Talusan",80,174,7.3350289,122.8874067
1635,"Titay",80,174,7.8653419,122.593828
1636,"Tungawan",80,174,7.590152,122.4014193
